[{"name":"Sweet Bar Bakery","address":"2355 Broadway","city":"Oakland","state":"Ca","long":"-122.266011839473","lat":"37.8129222733119","country":"USA","wifipassword":"cupcakes","outlets":"yes","couch":"no","largetable":"yes","brewing":"","outdoorseating":"yes","hexcolor":"#FF4646","rowNumber":1},{"name":"Awaken Cafe","address":"1429 Broadway","city":"Oakland","state":"Ca","long":"-122.271131495076","lat":"37.8046753170488","country":"USA","wifipassword":"iced coffee","outlets":"yes","couch":"yes","largetable":"yes","brewing":"Four Barrel","outdoorseating":"","hexcolor":"#FF4646","rowNumber":2},{"name":"Panther Coffee","address":"2390 NW 2nd Ave","city":"Miami","state":"Fl","long":"-80.1991536666667","lat":"25.8000021666667","country":"USA","wifipassword":"espresso","outlets":"yes","couch":"no","largetable":"yes","brewing":"In-house","outdoorseating":"yes","hexcolor":"#FF4646","rowNumber":3},{"name":"Haddon Hill Cafe","address":"504 Wesley Ave","city":"Oakland","state":"Ca","long":"-122.2488474","lat":"37.8049159","country":"USA","wifipassword":"haddon10","outlets":"yes","couch":"no","largetable":"yes","brewing":"Sight Glass","outdoorseating":"yes","hexcolor":"#FF4646","rowNumber":4},{"name":"SubRosa Coffee","address":"419 40th Street","city":"Oakland","state":"Ca","long":"-122.2604838","lat":"37.8283586","country":"USA","wifipassword":"-","outlets":"yes","couch":"no","largetable":"no","brewing":"Four Barrel","outdoorseating":"yes","hexcolor":"#FF4646","rowNumber":5}]